{"reviews_count": null, "iso2_country": "US", "trust_score": null, "street": "Piedmont Avenue 2434", "cluster_id": "1441db3b-ed8b-46aa-a986-20730dd8e273", "city": "Berkeley", "name": "Berkeleyhostel.com", "zip": "94704", "country": "United States", "coordinates": [-122.2519185, 37.8665381], "state": "California", "district": null, "geocoded_city": {"id": "Berkeley, CA, USA"}},
{"reviews_count": 21, "iso2_country": "US", "trust_score": 45, "street": "Durant Avenue 2520", "cluster_id": "582e5ca7-c44b-4f62-b5d7-28bbdbbc179a", "city": "Berkeley", "name": "The Beau Sky Hotel", "zip": "94704", "country": "United States", "coordinates": [-122.2579617, 37.8678222], "state": "California", "district": null, "geocoded_city": {"id": "Berkeley, CA, USA"}},
{"reviews_count": 718, "iso2_country": "US", "trust_score": 85, "street": "Allston Way 2086", "cluster_id": "2cf58803-f1f0-49ca-a24a-2201ebd2a618", "city": "Berkeley", "name": "Hotel Shattuck Plaza", "zip": "94704", "country": "United States", "coordinates": [-122.268554, 37.86923], "state": "California", "district": null, "geocoded_city": {"id": "Berkeley, CA, USA"}},
{"reviews_count": 413, "iso2_country": "US", "trust_score": 63, "street": "University Avenue 1820", "cluster_id": "e3ee5366-2c55-4e7b-a21a-9c561a200667", "city": "Berkeley", "name": "Berkeley Travelodge", "zip": "94703", "country": "United States", "coordinates": [-122.2742609, 37.8713087], "state": "California", "district": null, "geocoded_city": {"id": "Berkeley, CA, USA"}},
{"reviews_count": 66, "iso2_country": "US", "trust_score": 75, "street": "University Avenue 1761", "cluster_id": "c7cdb632-dae3-4c44-a9cc-2c5e6b6ba0a7", "city": "Berkeley", "name": "Hotel Vista Inn Berkeley", "zip": "94710", "country": "United States", "coordinates": [-122.276246, 37.871447], "state": "California", "district": null, "geocoded_city": {"id": "Berkeley, CA, USA"}},
{"reviews_count": 2, "iso2_country": "US", "trust_score": null, "street": "University Avenue 2045", "cluster_id": "694640c5-80a6-4413-92aa-1532d6a77a2b", "city": "Berkeley", "name": "Nash Hotel", "zip": "94704", "country": "United States", "coordinates": [-122.2699754, 37.8720186], "state": "California", "district": null, "geocoded_city": {"id": "Berkeley, CA, USA"}},
{"reviews_count": 341, "iso2_country": "US", "trust_score": 59, "street": "San Pablo Avenue 1720", "cluster_id": "ee004516-88a5-4cd3-ac3e-cbca261b4c03", "city": "Berkeley", "name": "Berkeley Inn", "zip": "94702", "country": "United States", "coordinates": [-122.293704, 37.872684], "state": "California", "district": null, "geocoded_city": {"id": "Berkeley, CA, USA"}},
{"reviews_count": null, "iso2_country": "US", "trust_score": null, "street": "Alvarado Road 47", "cluster_id": "83a50e90-13de-4fa7-892d-a4fd45a19367", "city": "Berkeley", "name": "Mary's Bed and Breakfast", "zip": "94705", "country": "United States", "coordinates": [-122.24057, 37.8570769], "state": "California", "district": null, "geocoded_city": {"id": "Berkeley, CA, USA"}},
{"reviews_count": 302, "iso2_country": "US", "trust_score": 79, "street": "Telegraph Avenue 2740", "cluster_id": "3bf4ed3b-41d0-4e77-aa43-b0f1798f1194", "city": "Berkeley", "name": "Rose Garden Inn", "zip": "94705", "country": "United States", "coordinates": [-122.259341, 37.859578], "state": "California", "district": null, "geocoded_city": {"id": "Berkeley, CA, USA"}},
{"reviews_count": 1075, "iso2_country": "US", "trust_score": 75, "street": "Tunnel Road 41", "cluster_id": "d6a2b0bc-2858-4d0c-a4da-f9290627b82f", "city": "Berkeley", "name": "The Claremont Hotel Club & Spa", "zip": "94705", "country": "United States", "coordinates": [-122.244215, 37.859611], "state": "California", "district": null, "geocoded_city": {"id": "Berkeley, CA, USA"}},
{"reviews_count": 1475, "iso2_country": "US", "trust_score": 79, "street": "Marina Boulevard 200", "cluster_id": "59ecc4ff-c981-4c4a-a49c-4440a084c99a", "city": "Berkeley", "name": "DoubleTree by Hilton Berkeley Marina", "zip": "94710", "country": "United States", "coordinates": [-122.313763, 37.868635], "state": "California", "district": null, "geocoded_city": {"id": "Berkeley, CA, USA"}},
{"reviews_count": 337, "iso2_country": "US", "trust_score": 81, "street": "University Avenue 1175", "cluster_id": "df61801b-ed39-47ae-9220-0fb3b141b9d0", "city": "Berkeley", "name": "Holiday Inn Express Hotel & Suites Berkeley", "zip": "94702", "country": "United States", "coordinates": [-122.2904117, 37.8694932], "state": "California", "district": null, "geocoded_city": {"id": "Berkeley, CA, USA"}},
{"reviews_count": 2, "iso2_country": "US", "trust_score": null, "street": "Bancroft Way 2001", "cluster_id": "9a125fc7-d872-4c93-85dc-f2985c4c7403", "city": "Berkeley", "name": "Downtown Berkeley Inn", "zip": "94704", "country": "United States", "coordinates": [-122.270018, 37.867543], "state": "California", "district": null, "geocoded_city": {"id": "Berkeley, CA, USA"}},
{"reviews_count": 642, "iso2_country": "US", "trust_score": 69, "street": "University Avenue 920", "cluster_id": "6ef6c292-1feb-412a-8397-66bcd3fd58bd", "city": "Berkeley", "name": "La Quinta Inn Berkeley", "zip": "94710", "country": "United States", "coordinates": [-122.2958435, 37.8682603], "state": "California", "district": null, "geocoded_city": {"id": "Berkeley, CA, USA"}},
{"reviews_count": null, "iso2_country": "US", "trust_score": null, "street": null, "cluster_id": "61261b7b-8d3f-41e2-a479-e52ed4b8ce36", "city": "Berkeley", "name": "Hotel Comfort Inn Airport & Conference Center", "zip": null, "country": "United States", "coordinates": [-122.272747, 37.8715926], "state": "California", "district": null, "geocoded_city": {"id": "Berkeley, CA, USA"}},
{"reviews_count": 101, "iso2_country": "US", "trust_score": 69, "street": "San Pablo Avenue 1620", "cluster_id": "0bb74b75-e78b-477f-bec7-516c69507f32", "city": "Berkeley", "name": "Americas Best Value Inn-Berkeley / San Francisco", "zip": "94702", "country": "United States", "coordinates": [-122.294336, 37.874674], "state": "California", "district": null, "geocoded_city": {"id": "Berkeley, CA, USA"}},
{"reviews_count": null, "iso2_country": "US", "trust_score": null, "street": "Marin Avenue 1805", "cluster_id": "99340390-e1ec-48eb-8c54-0242a2c629c6", "city": "Berkeley", "name": "Berkeley Brick Path Bed & Breakfast", "zip": "94707", "country": "United States", "coordinates": [-122.278562, 37.889734], "state": "California", "district": null, "geocoded_city": {"id": "Berkeley, CA, USA"}},
{"reviews_count": 156, "iso2_country": "US", "trust_score": 64, "street": "University Avenue 1761", "cluster_id": "af0bbf95-e8e3-4d02-a06a-d97da5ec11cb", "city": "Berkeley", "name": "BEST WESTERN Hotel University Inn Berkeley", "zip": "94703", "country": "United States", "coordinates": [-122.272747, 37.8715926], "state": "California", "district": null, "geocoded_city": {"id": "Berkeley, CA, USA"}},
{"reviews_count": 2, "iso2_country": "US", "trust_score": null, "street": "Bancroft Way 2680", "cluster_id": "78aa6c18-b016-4221-bac8-6dc8010f5e63", "city": "Berkeley", "name": "Bancroft Hotel", "zip": "94704", "country": "United States", "coordinates": [-122.272747, 37.8715926], "state": "California", "district": null, "geocoded_city": {"id": "Berkeley, CA, USA"}},
{"reviews_count": 694, "iso2_country": "US", "trust_score": 73, "street": "University Avenue 1619", "cluster_id": "778b5447-0523-4380-b3e3-132676d171cf", "city": "Berkeley", "name": "Super 8 Berkeley", "zip": "94703", "country": "United States", "coordinates": [-122.279019, 37.871096], "state": "California", "district": null, "geocoded_city": {"id": "Berkeley, CA, USA"}},
{"reviews_count": 589, "iso2_country": "US", "trust_score": 78, "street": "University Avenue 1461", "cluster_id": "218f8be2-9864-4630-a3cb-8b3440f4eeb9", "city": "Berkeley", "name": "Rodeway Inn - Berkeley", "zip": "94702", "country": "United States", "coordinates": [-122.2832506, 37.8703551], "state": "California", "district": null, "geocoded_city": {"id": "Berkeley, CA, USA"}},
{"reviews_count": null, "iso2_country": "US", "trust_score": null, "street": "San Pablo Avenue 1620", "cluster_id": "b13dd198-0be6-40eb-afb7-0d3d6bf5b6ec", "city": "Berkeley", "name": "Hotel Best Value Golden Bear Inn", "zip": "94702", "country": "United States", "coordinates": [-122.2942791, 37.8747506], "state": "California", "district": null, "geocoded_city": {"id": "Berkeley, CA, USA"}},
{"reviews_count": null, "iso2_country": "US", "trust_score": null, "street": null, "cluster_id": "84a87df0-4b82-451a-8103-3694acbdef53", "city": "Berkeley", "name": "Berkeley Lodging - Bonita Studio", "zip": null, "country": "United States", "coordinates": [-122.272747, 37.8715926], "state": "California", "district": null, "geocoded_city": {"id": "Berkeley, CA, USA"}},
{"reviews_count": 311, "iso2_country": "US", "trust_score": 83, "street": "Durant Avenue 2315", "cluster_id": "83060876-2aa3-485f-bda6-6164895eaa9d", "city": "Berkeley", "name": "Hotel Berkeley City Club", "zip": "94704", "country": "United States", "coordinates": [-122.272747, 37.8715926], "state": "California", "district": null, "geocoded_city": {"id": "Berkeley, CA, USA"}},
{"reviews_count": null, "iso2_country": "US", "trust_score": null, "street": "Shattuck Avenue 1538", "cluster_id": "01abe19f-785a-4d0e-80b1-fb85655a2008", "city": "Berkeley", "name": "French Hotel", "zip": "94709", "country": "United States", "coordinates": [-122.272747, 37.8715926], "state": "California", "district": null, "geocoded_city": {"id": "Berkeley, CA, USA"}},
{"reviews_count": 169, "iso2_country": "US", "trust_score": 70, "street": "University Avenue 1512", "cluster_id": "7172138a-aa64-44de-b986-f616cfb60da6", "city": "Berkeley", "name": "Knights Inn Berkeley CA", "zip": "94703", "country": "United States", "coordinates": [-122.272747, 37.8715926], "state": "California", "district": null, "geocoded_city": {"id": "Berkeley, CA, USA"}},
{"reviews_count": 291, "iso2_country": "US", "trust_score": 69, "street": "San Pablo Avenue 1620", "cluster_id": "3d03d9cb-7d4d-4a6a-b509-3de1fa10d961", "city": "Berkeley", "name": "Americas Best Value Inn Golden Bear Inn", "zip": "94702", "country": "United States", "coordinates": [-122.294336, 37.874674], "state": "California", "district": null, "geocoded_city": {"id": "Berkeley, CA, USA"}}